{
  "stationen": [
    {
      "name": "Vattenfall InCharge Aschersleben",
      "betreiber": "Vattenfall InCharge",
      "lat": 51.75467,
      "lng": 11.46437,
      "ladeart": "DC",
      "maxKW": 180.0,
      "anschluesse": "4",
      "adresse": "Heinrichstraße 22",
      "stadt": "Aschersleben"
    },
    {
      "name": "Raststätte Plötzetal Ost",
      "betreiber": "E.ON Drive Infrastructure",
     "lat": 51.65597,
      "lng": 11.82230,
      "ladeart": "DC",
      "maxKW": 100.0,
      "anschluesse": "2",
      "adresse": "A14",
      "stadt": "Könnern"
    },
    {
      "name": "Raststätte Plötzetal West",
      "betreiber": "E.ON Drive Infrastructure",
      "lat": 51.65598,
      "lng": 11.81787,
      "ladeart": "DC",
      "maxKW": 100.0,
      "anschluesse": "2",
      "adresse": "A14",
      "stadt": "Könnern"
    },
    {
      "name": "EWE Go Rosenfelder Straße",
      "betreiber": "EWE Go",
      "lat": 51.50134,
      "lng": 12.03335,
      "ladeart": "DC",
      "maxKW": 150.0,
      "anschluesse": "1",
      "adresse": "Rosenfelder Straße 11",
      "stadt": "Halle (Saale)"
    },
    {
      "name": "Aral pulse Geltestraße",
      "betreiber": "Aral pulse",
      "lat": 51.47656,
      "lng": 12.08660,
      "ladeart": "DC",
      "maxKW": 300.0,
      "anschluesse": "4",
      "adresse": "Geltestraße 1",
      "stadt": "Kabelsketal"
    },
    {
      "name": "Aral pulse Sandersdorf-Brehna",
      "betreiber": "Aral pulse",
      "lat": 51.55352,
      "lng": 12.19652,
      "ladeart": "DC",
      "maxKW": 300.0,
      "anschluesse": "6",
      "adresse": "An der B 100 32",
      "stadt": "Sandersdorf-Brehna"
    },
    {
      "name": "EWE Go Miltitzer Straße",
      "betreiber": "EWE Go",
      "lat": 51.34769,
      "lng": 12.26335,
      "ladeart": "DC",
      "maxKW": 300.0,
      "anschluesse": "4",
      "adresse": "Miltitzer Straße 13",
      "stadt": "Leipzig"
    }
    {
      "name": "Porsche Sales & Marketplace Charging Station",
      "betreiber": "Porsche Charging Service",
      "lat": 51.40652,
      "lng": 12.29681,
      "ladeart": "DC",
      "maxKW": 350.0,
      "anschluesse": "12",
      "adresse": "Porschestraße 1",
      "stadt": "Leipzig"
    }
  ]
}
